2025-04-01 10:47:30 - $GNRMC,024726.00,A,3101.4442621,N,12127.4606053,E,0.014,,010425,,,A,V*13

2025-04-01 10:47:30 - $GNVTG,,T,,M,0.014,N,0.027,K,A*3D

2025-04-01 10:47:30 - $GNGGA,024726.00,3101.4442621,N,12127.4606053,E,1,12,0.88,116.886,M,9.898,M,,*71

2025-04-01 10:47:30 - $GNGSA,A,3,17,27,14,02,07,30,01,08,,,,,1.44,0.88,1.15,1*0C

2025-04-01 10:47:30 - $GNGSA,A,3,85,87,86,76,77,,,,,,,,1.44,0.88,1.15,2*0B

2025-04-01 10:47:30 - $GNGSA,A,3,25,33,10,05,31,16,24,,,,,,1.44,0.88,1.15,3*07

2025-04-01 10:47:30 - $GNGSA,A,3,30,07,09,10,26,29,06,16,,,,,1.44,0.88,1.15,4*02

2025-04-01 10:47:30 - $GPGSV,4,1,13,01,59,169,22,02,73,081,28,03,04,159,,07,62,253,30,1*6B

2025-04-01 10:47:30 - $GPGSV,4,2,13,08,48,036,31,09,02,215,37,10,06,052,,14,17,308,45,1*63

2025-04-01 10:47:30 - $GPGSV,4,3,13,16,10,108,28,17,15,257,39,22,01,300,26,27,17,057,23,1*6A

2025-04-01 10:47:30 - $GPGSV,4,4,13,30,39,302,53,1*58

2025-04-01 10:47:30 - $GPGSV,4,1,13,01,59,169,,02,73,081,,03,04,159,,07,62,253,,6*65

2025-04-01 10:47:30 - $GPGSV,4,2,13,08,48,036,,09,02,215,,10,06,052,,14,17,308,,6*63

2025-04-01 10:47:30 - $GPGSV,4,3,13,16,10,108,,17,15,257,,22,01,300,,27,17,057,,6*68

2025-04-01 10:47:30 - $GPGSV,4,4,13,30,39,302,,6*59

2025-04-01 10:47:30 - $GLGSV,2,1,07,74,01,136,31,75,48,120,28,76,59,350,42,77,16,327,46,1*71

2025-04-01 10:47:30 - $GLGSV,2,2,07,85,28,028,31,86,84,318,31,87,40,220,34,1*46

2025-04-01 10:47:30 - $GLGSV,2,1,07,74,01,136,,75,48,120,,76,59,350,,77,16,327,,3*7F

2025-04-01 10:47:30 - $GLGSV,2,2,07,85,28,028,,86,84,318,,87,40,220,,3*43

2025-04-01 10:47:30 - $GAGSV,3,1,12,03,04,305,32,05,14,258,38,09,07,209,24,10,54,175,25,7*71

2025-04-01 10:47:30 - $GAGSV,3,2,12,11,29,194,,12,68,126,,16,38,317,41,23,03,110,11,7*70

2025-04-01 10:47:30 - $GAGSV,3,3,12,24,60,344,38,25,16,305,42,31,47,085,25,33,32,045,23,7*72

2025-04-01 10:47:30 - $GAGSV,3,1,12,03,04,305,,05,14,258,,09,07,209,,10,54,175,,2*7F

2025-04-01 10:47:30 - $GAGSV,3,2,12,11,29,194,,12,68,126,,16,38,317,,23,03,110,,2*70

2025-04-01 10:47:30 - $GAGSV,3,3,12,24,60,344,,25,16,305,,31,47,085,,33,32,045,,2*7C

2025-04-01 10:47:30 - $GBGSV,4,1,13,01,45,141,,02,34,234,,03,50,200,,04,34,124,,1*75

2025-04-01 10:47:30 - $GBGSV,4,2,13,05,14,254,,06,62,213,30,07,64,303,41,09,67,250,37,1*7B

2025-04-01 10:47:30 - $GBGSV,4,3,13,10,53,287,46,16,56,196,26,26,19,317,45,29,77,003,31,1*77

2025-04-01 10:47:30 - $GBGSV,4,4,13,30,25,044,23,1*41

2025-04-01 10:47:30 - $GBGSV,4,1,13,01,45,141,,02,34,234,,03,50,200,,04,34,124,,3*77

2025-04-01 10:47:30 - $GBGSV,4,2,13,05,14,254,,06,62,213,,07,64,303,,09,67,250,,3*7B

2025-04-01 10:47:30 - $GBGSV,4,3,13,10,53,287,,16,56,196,,26,19,317,,29,77,003,,3*70

2025-04-01 10:47:30 - $GBGSV,4,4,13,30,25,044,,3*42

2025-04-01 10:47:30 - $GNGLL,3101.4442621,N,12127.4606053,E,024726.00,A,A*77

2025-04-01 10:47:30 - $GNRMC,024727.00,A,3101.4442376,N,12127.4606666,E,0.037,,010425,,,A,V*14

2025-04-01 10:47:30 - $GNVTG,,T,,M,0.037,N,0.068,K,A*37

2025-04-01 10:47:30 - $GNGGA,024727.00,3101.4442376,N,12127.4606666,E,1,12,1.21,116.760,M,9.898,M,,*72

2025-04-01 10:47:30 - $GNGSA,A,3,17,27,14,02,07,30,08,,,,,,1.88,1.21,1.44,1*0B

2025-04-01 10:47:30 - $GNGSA,A,3,85,87,86,76,77,,,,,,,,1.88,1.21,1.44,2*0D

2025-04-01 10:47:30 - $GNGSA,A,3,25,33,10,05,31,16,24,,,,,,1.88,1.21,1.44,3*01

2025-04-01 10:47:30 - $GNGSA,A,3,30,07,09,10,26,29,06,16,,,,,1.88,1.21,1.44,4*04

2025-04-01 10:47:30 - $GPGSV,4,1,13,01,59,169,,02,73,081,28,03,04,159,,07,62,253,31,1*6A

2025-04-01 10:47:30 - $GPGSV,4,2,13,08,48,036,30,09,02,215,37,10,06,052,,14,17,308,45,1*62

2025-04-01 10:47:30 - $GPGSV,4,3,13,16,10,108,28,17,15,257,39,22,01,301,29,27,17,057,23,1*64

2025-04-01 10:47:30 - $GPGSV,4,4,13,30,39,302,53,1*58

2025-04-01 10:47:30 - $GPGSV,4,1,13,01,59,169,,02,73,081,,03,04,159,,07,62,253,,6*65

2025-04-01 10:47:30 - $GPGSV,4,2,13,08,48,036,,09,02,215,,10,06,052,,14,17,308,,6*63

2025-04-01 10:47:30 - $GPGSV,4,3,13,16,10,108,,17,15,257,,22,01,301,,27,17,057,,6*69

2025-04-01 10:47:30 - $GPGSV,4,4,13,30,39,302,,6*59

2025-04-01 10:47:30 - $GLGSV,2,1,07,74,01,136,32,75,48,120,28,76,59,350,41,77,16,327,47,1*70

2025-04-01 10:47:30 - $GLGSV,2,2,07,85,28,028,32,86,84,318,31,87,40,220,35,1*44

2025-04-01 10:47:30 - $GLGSV,2,1,07,74,01,136,,75,48,120,,76,59,350,,77,16,327,,3*7F

2025-04-01 10:47:30 - $GLGSV,2,2,07,85,28,028,,86,84,318,,87,40,220,,3*43

2025-04-01 10:47:30 - $GAGSV,3,1,12,03,04,305,32,05,14,258,39,09,07,209,25,10,54,175,25,7*71

2025-04-01 10:47:30 - $GAGSV,3,2,12,11,29,194,,12,68,126,,16,38,317,40,23,03,110,13,7*73

2025-04-01 10:47:30 - $GAGSV,3,3,12,24,60,344,38,25,16,305,42,31,47,085,23,33,32,045,23,7*74

2025-04-01 10:47:30 - $GAGSV,3,1,12,03,04,305,,05,14,258,,09,07,209,,10,54,175,,2*7F

2025-04-01 10:47:30 - $GAGSV,3,2,12,11,29,194,,12,68,126,,16,38,317,,23,03,110,,2*70

2025-04-01 10:47:30 - $GAGSV,3,3,12,24,60,344,,25,16,305,,31,47,085,,33,32,045,,2*7C

2025-04-01 10:47:30 - $GBGSV,4,1,13,01,45,141,,02,34,234,,03,50,200,,04,34,124,,1*75

2025-04-01 10:47:30 - $GBGSV,4,2,13,05,14,254,,06,62,213,30,07,64,303,41,09,67,250,37,1*7B

2025-04-01 10:47:30 - $GBGSV,4,3,13,10,53,287,47,16,56,196,27,26,19,317,45,29,77,003,31,1*77

2025-04-01 10:47:30 - $GBGSV,4,4,13,30,25,044,25,1*47

2025-04-01 10:47:30 - $GBGSV,4,1,13,01,45,141,,02,34,234,,03,50,200,,04,34,124,,3*77

2025-04-01 10:47:30 - $GBGSV,4,2,13,05,14,254,,06,62,213,,07,64,303,,09,67,250,,3*7B

2025-04-01 10:47:30 - $GBGSV,4,3,13,10,53,287,,16,56,196,,26,19,317,,29,77,003,,3*70

2025-04-01 10:47:30 - $GBGSV,4,4,13,30,25,044,,3*42

2025-04-01 10:47:30 - $GNGLL,3101.4442376,N,12127.460666$GNRMC,024729.00,A,3101.4441852,N,12127.4608028,E,0.038,,010425,,,A,V*19

2025-04-01 10:47:30 - $GNVTG,,T,,M,0.038,N,0.070,K,A*31

2025-04-01 10:47:30 - $GNGGA,024729.00,3101.4441852,N,12127.4608028,E,1,12,1.08,116.505,M,9.898,M,,*7A

2025-04-01 10:47:30 - $GNGSA,A,3,17,27,14,02,07,30,08,,,,,,1.71,1.08,1.32,1*07

2025-04-01 10:47:30 - $GNGSA,A,3,85,87,86,76,77,,,,,,,,1.71,1.08,1.32,2*01

2025-04-01 10:47:30 - $GNGSA,A,3,25,33,10,05,31,16,24,,,,,,1.71,1.08,1.32,3*0D

2025-04-01 10:47:30 - $GNGSA,A,3,30,07,09,10,26,29,06,16,,,,,1.71,1.08,1.32,4*08

2025-04-01 10:47:30 - $GPGSV,4,1,13,01,59,169,,02,73,081,26,03,04,159,,07,62,253,29,1*6D

2025-04-01 10:47:30 - $GPGSV,4,2,13,08,48,036,27,09,02,215,35,10,06,052,,14,17,308,45,1*66

2025-04-01 10:47:30 - $GPGSV,4,3,13,16,10,108,31,17,15,257,40,22,01,301,28,27,17,057,25,1*65

2025-04-01 10:47:30 - $GPGSV,4,4,13,30,39,302,52,1*59

2025-04-01 10:47:30 - $GPGSV,4,1,13,01,59,169,,02,73,081,,03,04,159,,07,62,253,,6*65

2025-04-01 10:47:30 - $GPGSV,4,2,13,08,48,036,,09,02,215,,10,06,052,,14,17,308,,6*63

2025-04-01 10:47:30 - $GPGSV,4,3,13,16,10,108,,17,15,257,,22,01,301,,27,17,057,,6*69

2025-04-01 10:47:30 - $GPGSV,4,4,13,30,39,302,,6*59

2025-04-01 10:47:30 - $GLGSV,2,1,07,74,01,136,30,75,48,120,27,76,59,350,42,77,16,327,49,1*70

2025-04-01 10:47:30 - $GLGSV,2,2,07,85,28,028,32,86,84,318,31,87,40,220,35,1*44

2025-04-01 10:47:30 - $GLGSV,2,1,07,74,01,136,,75,48,120,,76,59,350,,77,16,327,,3*7F

2025-04-01 10:47:30 - $GLGSV,2,2,07,85,28,028,,86,84,318,,87,40,220,,3*43

2025-04-01 10:47:30 - $GAGSV,3,1,12,03,04,305,33,05,14,258,40,09,07,209,27,10,54,175,27,7*7E

2025-04-01 10:47:30 - $GAGSV,3,2,12,11,29,194,,12,68,126,,16,38,317,40,23,03,110,14,7*74

2025-04-01 10:47:30 - $GAGSV,3,3,12,24,60,344,38,25,16,305,43,31,47,085,18,33,32,045,23,7*7D

2025-04-01 10:47:30 - $GAGSV,3,1,12,03,04,305,,05,14,258,,09,07,209,,10,54,175,,2*7F

2025-04-01 10:47:30 - $GAGSV,3,2,12,11,29,194,,12,68,126,,16,38,317,,23,03,110,,2*70

2025-04-01 10:47:30 - $GAGSV,3,3,12,24,60,344,,25,16,305,,31,47,085,,33,32,045,,2*7C

2025-04-01 10:47:30 - $GBGSV,4,1,13,01,45,141,,02,34,234,,03,50,200,,04,34,124,,1*75

2025-04-01 10:47:30 - $GBGSV,4,2,13,05,14,254,,06,62,213,31,07,64,303,41,09,67,250,37,1*7A

2025-04-01 10:47:30 - $GBGSV,4,3,13,10,53,287,47,16,56,196,28,26,19,317,43,29,77,003,31,1*7E

2025-04-01 10:47:30 - $GBGSV,4,4,13,30,25,044,25,1*47

2025-04-01 10:47:30 - $GBGSV,4,1,13,01,45,141,,02,34,234,,03,50,200,,04,34,124,,3*77

2025-04-01 10:47:30 - $GBGSV,4,2,13,05,14,254,,06,62,213,,07,64,303,,09,67,250,,3*7B

2025-04-01 10:47:30 - $GBGSV,4,3,13,10,53,287,,16,56,196,,26,19,317,,29,77,003,,3*70

2025-04-01 10:47:30 - $GBGSV,4,4,13,30,25,044,,3*42

2025-04-01 10:47:30 - $GNGLL,3101.4441852,N,12127.4608028,E,024729.00,A,A*73

2025-04-01 10:47:30 - $GNRMC,024730.00,A,3101.4441670,N,12127.4608802,E,0.026,,010425,,,A,V*10

2025-04-01 10:47:30 - $GNVTG,,T,,M,0.026,N,0.048,K,A*35

2025-04-01 10:47:30 - $GNGGA,024730.00,3101.4441670,N,12127.4608802,E,1,12,1.30,116.379,M,9.898,M,,*7A

2025-04-01 10:47:30 - $GNGSA,A,3,17,27,14,02,07,30,08,,,,,,1.97,1.30,1.48,1*09

2025-04-01 10:47:30 - $GNGSA,A,3,85,87,86,76,77,,,,,,,,1.97,1.30,1.48,2*0F

2025-04-01 10:47:30 - $GNGSA,A,3,25,33,10,05,31,16,24,,,,,,1.97,1.30,1.48,3*03

2025-04-01 10:47:30 - $GNGSA,A,3,30,07,09,10,26,29,06,16,,,,,1.97,1.30,1.48,4*06

2025-04-01 10:47:30 - $GPGSV,4,1,13,01,59,169,,02,73,081,26,03,04,159,,07,62,253,27,1*63

2025-04-01 10:47:30 - $GPGSV,4,2,13,08,48,036,24,09,02,215,34,10,06,052,,14,17,308,45,1*64

2025-04-01 10:47:30 - $GPGSV,4,3,13,16,10,108,31,17,15,257,40,22,01,301,27,27,17,057,25,1*6A

2025-04-01 10:47:30 - $GPGSV,4,4,13,30,39,302,52,1*59

2025-04-01 10:47:30 - $GPGSV,4,1,13,01,59,169,,02,73,081,,03,04,159,,07,62,253,,6*65

2025-04-01 10:47:30 - $GPGSV,4,2,13,08,48,036,,09,02,215,,10,06,052,,14,17,308,,6*63

2025-04-01 10:47:30 - $GPGSV,4,3,13,16,10,108,,17,15,257,,22,01,301,,27,17,057,,6*69

2025-04-01 10:47:30 - $GPGSV,4,4,13,30,39,302,,6*59

2025-04-01 10:47:30 - $GLGSV,2,1,07,74,01,136,31,75,48,120,32,76,59,350,42,77,16,327,49,1*75

2025-04-01 10:47:30 - $GLGSV,2,2,07,85,28,028,30,86,84,318,30,87,40,220,35,1*47

2025-04-01 10:47:30 - $GLGSV,2,1,07,74,01,136,,75,48,120,,76,59,350,,77,16,327,,3*7F

2025-04-01 10:47:30 - $GLGSV,2,2,07,85,28,028,,86,84,318,,87,40,220,,3*43

2025-04-01 10:47:30 - $GAGSV,3,1,12,03,04,305,33,05,14,258,40,09,07,209,27,10,54,175,28,7*71

2025-04-01 10:47:30 - $GAGSV,3,2,12,11,29,194,,12,68,126,,16,38,317,39,23,03,110,16,7*78

2025-04-01 10:47:30 - $GAGSV,3,3,12,24,60,344,38,25,16,305,44,31,47,085,14,33,32,045,22,7*77

2025-04-01 10:47:30 - $GAGSV,3,1,12,03,04,305,,05,14,258,,09,07,209,,10,54,175,,2*7F

2025-04-01 10:47:30 - $GAGSV,3,2,12,11,29,194,,12,68,126,,16,38,317,,23,03,110,,2*70

2025-04-01 10:47:30 - $GAGSV,3,3,12,24,60,344,,25,16,305,,31,47,085,,33,32,045,,2*7C

2025-04-01 10:47:30 - $GBGSV,4,1,13,01,45,141,,02,34,234,,03,50,200,,04,34,124,,1*75

2025-04-01 10:47:30 - $GBGSV,4,2,13,05,14,254,,06,62,213,31,07,64,303,41,09,67,250,37,1*7A

2025-04-01 10:47:30 - $GBGSV,4,3,13,10,53,287,46,16,56,196,29,26,19,317,44,29,77,003,31,1*79

2025-04-01 10:47:30 - $GBGSV,4,4,13,30,25,044,24,1*46

2025-04-01 10:47:30 - $GBGSV,4,1,13,01,45,141,,02,34,234,,03,50,200,,04,34,124,,3*77

2025-04-01 10:47:30 - $GBGSV,4,2,13,05,14,254,,06,62,213,,07,64,303,,09,67,250,,3*7B

2025-04-01 10:47:30 - $GBGSV,4,3,13,10,53,287,,16,56,196,,26,19,317,,29,77,003,,3*70

2025-04-01 10:47:30 - $GBGSV,4,4,13,30,25,044,,3*42

2025-04-01 10:47:34 - $GNGLL,3101.4441670,N,12127.4608802,E,024730.00,A,A*75

2025-04-01 10:47:34 - $GNRMC,024731.00,A,3101.4441392,N,12127.4609757,E,0.036,,010425,,,A,V*17

2025-04-01 10:47:34 - $GNVTG,,T,,M,0.036,N,0.067,K,A*39

2025-04-01 10:47:34 - $GNGGA,024731.00,3101.4441392,N,12127.4609757,E,1,12,1.35,116.244,M,9.898,M,,*76

2025-04-01 10:47:34 - $GNGSA,A,3,17,27,14,02,07,30,08,,,,,,2.06,1.35,1.56,1*08

2025-04-01 10:47:34 - $GNGSA,A,3,85,87,86,76,77,,,,,,,,2.06,1.35,1.56,2*0E

2025-04-01 10:47:34 - $GNGSA,A,3,25,33,10,05,31,16,24,,,,,,2.06,1.35,1.56,3*02

2025-04-01 10:47:34 - $GNGSA,A,3,30,07,09,10,26,29,06,16,,,,,2.06,1.35,1.56,4*07

2025-04-01 10:47:34 - $GPGSV,4,1,13,01,59,169,25,02,73,081,27,03,04,159,,07,62,253,27,1*65

2025-04-01 10:47:34 - $GPGSV,4,2,13,08,48,036,22,09,02,215,34,10,06,052,,14,17,308,45,1*62

2025-04-01 10:47:34 - $GPGSV,4,3,13,16,10,108,30,17,15,257,40,22,01,301,26,27,17,057,25,1*6A

2025-04-01 10:47:34 - $GPGSV,4,4,13,30,39,302,52,1*59

2025-04-01 10:47:34 - $GPGSV,4,1,13,01,59,169,,02,73,081,,03,04,159,,07,62,253,,6*65

2025-04-01 10:47:34 - $GPGSV,4,2,13,08,48,036,,09,02,215,,10,06,052,,14,17,308,,6*63

2025-04-01 10:47:34 - $GPGSV,4,3,13,16,10,108,,17,15,257,,22,01,301,,27,17,057,,6*69

2025-04-01 10:47:34 - $GPGSV,4,4,13,30,39,302,,6*59

2025-04-01 10:47:34 - $GLGSV,2,1,07,74,01,136,33,75,48,120,32,76,59,350,40,77,16,327,49,1*75

2025-04-01 10:47:34 - $GLGSV,2,2,07,85,28,028,28,86,84,318,30,87,40,220,34,1*4F

2025-04-01 10:47:34 - $GLGSV,2,1,07,74,01,136,,75,48,120,,76,59,350,,77,16,327,,3*7F

2025-04-01 10:47:34 - $GLGSV,2,2,07,85,28,028,,86,84,318,,87,40,220,,3*43

2025-04-01 10:47:34 - $GAGSV,3,1,12,03,04,305,33,05,14,258,40,09,07,209,28,10,54,175,28,7*7E

2025-04-01 10:47:34 - $GAGSV,3,2,12,11,29,194,,12,68,126,,16,38,317,39,23,03,110,13,7*7D

2025-04-01 10:47:34 - $GAGSV,3,3,12,24,60,344,38,25,16,305,44,31,47,085,15,33,32,045,21,7*75

2025-04-01 10:47:34 - $GAGSV,3,1,12,03,04,305,,05,14,258,,09,07,209,,10,54,175,,2*7F

2025-04-01 10:47:34 - $GAGSV,3,2,12,11,29,194,,12,68,126,,16,38,317,,23,03,110,,2*70

2025-04-01 10:47:34 - $GAGSV,3,3,12,24,60,344,,25,16,305,,31,47,085,,33,32,045,,2*7C

2025-04-01 10:47:34 - $GBGSV,4,1,13,01,45,141,,02,34,234,,03,50,200,,04,34,124,,1*75

2025-04-01 10:47:34 - $GBGSV,4,2,13,05,14,254,,06,62,213,32,07,64,303,41,09,67,250,37,1*79

2025-04-01 10:47:34 - $GBGSV,4,3,13,10,53,287,46,16,56,196,29,26,19,317,43,29,77,003,31,1*7E

2025-04-01 10:47:34 - $GBGSV,4,4,13,30,25,044,23,1*41

2025-04-01 10:47:34 - $GBGSV,4,1,13,01,45,141,,02,34,234,,03,50,200,,04,34,124,,3*77

2025-04-01 10:47:34 - $GBGSV,4,2,13,05,14,254,,06,62,213,,07,64,303,,09,67,250,,3*7B

2025-04-01 10:47:34 - $GBGSV,4,3,13,10,53,287,,16,56,196,,26,19,317,,29,77,003,,3*70

2025-04-01 10:47:34 - $GBGSV,4,4,13,30,25,044,,3*42

2025-04-01 10:47:34 - $GNGLL,3101.4441392,N,12127.4609757,E,024731.00,A,A*73

2025-04-01 10:47:34 - $GNRMC,024732.00,A,3101.4441315,N,12127.4610423,E,0.053,,010425,,,A,V*10

2025-04-01 10:47:34 - $GNVTG,,T,,M,0.053,N,0.098,K,A*3A

2025-04-01 10:47:34 - $GNGGA,024732.00,3101.4441315,N,12127.4610423,E,1,12,1.35,116.160,M,9.898,M,,*77

2025-04-01 10:47:34 - $GNGSA,A,3,17,27,14,02,07,30,01,08,,,,,2.06,1.35,1.56,1*09

2025-04-01 10:47:34 - $GNGSA,A,3,85,87,86,76,77,,,,,,,,2.06,1.35,1.56,2*0E

2025-04-01 10:47:34 - $GNGSA,A,3,25,33,10,05,31,16,24,,,,,,2.06,1.35,1.56,3*02

2025-04-01 10:47:34 - $GNGSA,A,3,30,07,09,10,26,29,06,16,,,,,2.06,1.35,1.56,4*07

2025-04-01 10:47:34 - $GPGSV,4,1,13,01,59,169,26,02,73,081,27,03,04,159,,07,62,253,26,1*67

2025-04-01 10:47:34 - $GPGSV,4,2,13,08,48,036,20,09,02,215,32,10,06,052,,14,17,308,46,1*65

2025-04-01 10:47:34 - $GPGSV,4,3,13,16,10,108,30,17,15,257,40,22,01,301,24,27,16,057,25,1*69

2025-04-01 10:47:34 - $GPGSV,4,4,13,30,39,302,52,1*59

2025-04-01 10:47:34 - $GPGSV,4,1,13,01,59,169,,02,73,081,,03,04,159,,07,62,253,,6*65

2025-04-01 10:47:34 - $GPGSV,4,2,13,08,48,036,,09,02,215,,10,06,052,,14,17,308,,6*63

2025-04-01 10:47:34 - $GPGSV,4,3,13,16,10,108,,17,15,257,,22,01,301,,27,16,057,,6*68

2025-04-01 10:47:34 - $GPGSV,4,4,13,30,39,302,,6*59

2025-04-01 10:47:34 - $GLGSV,2,1,07,74,01,136,32,75,48,120,31,76,59,350,39,77,16,327,50,1*71

2025-04-01 10:47:34 - $GLGSV,2,2,07,85,28,028,26,86,84,318,30,87,40,220,33,1*46

2025-04-01 10:47:34 - $GLGSV,2,1,07,74,01,136,,75,48,120,,76,59,350,,77,16,327,,3*7F

2025-04-01 10:47:34 - $GLGSV,2,2,07,85,28,028,,86,84,318,,87,40,220,,3*43

2025-04-01 10:47:34 - $GAGSV,3,1,12,03,04,305,33,05,14,258,41,09,07,209,29,10,54,175,28,7*7E

2025-04-01 10:47:34 - $GAGSV,3,2,12,11,29,194,,12,68,126,,16,38,317,39,23,03,110,13,7*7D

2025-04-01 10:47:34 - $GAGSV,3,3,12,24,60,344,38,25,16,305,44,31,47,085,15,33,32,045,20,7*74

2025-04-01 10:47:34 - $GAGSV,3,1,12,03,04,305,,05,14,258,,09,07,209,,10,54,175,,2*7F

2025-04-01 10:47:34 - $GAGSV,3,2,12,11,29,194,,12,68,126,,16,38,317,,23,03,110,,2*70

2025-04-01 10:47:34 - $GAGSV,3,3,12,24,60,344,,25,16,305,,31,47,085,,33,32,045,,2*7C

2025-04-01 10:47:34 - $GBGSV,4,1,13,01,45,141,,02,34,234,,03,50,200,,04,34,124,,1*75

2025-04-01 10:47:34 - $GBGSV,4,2,13,05,14,254,,06,62,213,32,07,64,303,41,09,67,250,38,1*76

2025-04-01 10:47:34 - $GBGSV,4,3,13,10,53,287,46,16,56,196,30,26,19,317,43,29,77,003,31,1*76

2025-04-01 10:47:34 - $GBGSV,4,4,13,30,25,044,23,1*41

2025-04-01 10:47:34 - $GBGSV,4,1,13,01,45,141,,02,34,234,,03,50,200,,04,34,124,,3*77

2025-04-01 10:47:34 - $GBGSV,4,2,13,05,14,254,,06,62,213,,07,64,303,,09,67,250,,3*7B

2025-04-01 10:47:34 - $GBGSV,4,3,13,10,53,287,,16,56,196,,26,19,317,,29,77,003,,3*70

2025-04-01 10:47:34 - $GBGSV,4,4,13,30,25,044,,3*42

2025-04-01 10:47:34 - $GNGLL,3101.4441315,N,12127.4610423,E,024732.00,A,A*77

2025-04-01 10:47:34 - $GNRMC,024733.00,A,3101.4440943,N,12127.4611269,E,0.040,,010425,,,A,V*12

2025-04-01 10:47:34 - $GNVTG,,T,,M,0.040,N,0.074,K,A*3A

2025-04-01 10:47:34 - $GNGGA,024733.00,3101.4440943,N,12127.4611269,E,1,12,1.35,116.045,M,9.898,M,,*71

2025-04-01 10:47:34 - $GNGSA,A,3,17,27,14,02,30,01,08,,,,,,2.06,1.35,1.56,1*0E

2025-04-01 10:47:34 - $GNGSA,A,3,85,87,86,76,77,,,,,,,,2.06,1.35,1.56,2*0E

2025-04-01 10:47:34 - $GNGSA,A,3,25,33,10,05,31,16,24,,,,,,2.06,1.35,1.56,3*02

2025-04-01 10:47:34 - $GNGSA,A,3,30,07,09,10,26,29,06,16,,,,,2.06,1.35,1.56,4*07

2025-04-01 10:47:34 - $GPGSV,4,1,13,01,59,169,27,02,73,081,26,03,04,159,,07,62,253,,1*63

2025-04-01 10:47:34 - $GPGSV,4,2,13,08,48,036,21,09,02,215,31,10,06,052,,14,17,308,46,1*67

2025-04-01 10:47:34 - $GPGSV,4,3,13,16,10,108,31,17,15,257,40,22,01,301,23,27,16,057,25,1*6F

2025-04-01 10:47:34 - $GPGSV,4,4,13,30,39,302,52,1*59

2025-04-01 10:47:34 - $GPGSV,4,1,13,01,59,169,,02,73,081,,03,04,159,,07,62,253,,6*65

2025-04-01 10:47:34 - $GPGSV,4,2,13,08,48,036,,09,02,215,,10,06,052,,14,17,308,,6*63

2025-04-01 10:47:34 - $GPGSV,4,3,13,16,10,108,,17,15,257,,22,01,301,,27,16,057,,6*68

2025-04-01 10:47:34 - $GPGSV,4,4,13,30,39,302,,6*59

2025-04-01 10:47:34 - $GLGSV,2,1,07,74,01,136,31,75,48,120,31,76,59,350,39,77,16,327,50,1*72

2025-04-01 10:47:34 - $GLGSV,2,2,07,85,28,028,23,86,84,318,31,87,40,220,32,1*43

2025-04-01 10:47:34 - $GLGSV,2,1,07,74,01,136,,75,48,120,,76,59,350,,77,16,327,,3*7F

2025-04-01 10:47:34 - $GLGSV,2,2,07,85,28,028,,86,84,318,,87,40,220,,3*43

2025-04-01 10:47:34 - $GAGSV,3,1,12,03,04,305,34,05,14,258,41,09,07,209,30,10,54,175,27,7*7E

2025-04-01 10:47:34 - $GAGSV,3,2,12,11,29,194,,12,68,126,,16,38,317,38,23,03,110,17,7*78

2025-04-01 10:47:34 - $GAGSV,3,3,12,24,60,344,37,25,16,305,44,31,47,085,16,33,32,045,19,7*72

2025-04-01 10:47:34 - $GAGSV,3,1,12,03,04,305,,05,14,258,,09,07,209,,10,54,175,,2*7F

2025-04-01 10:47:34 - $GAGSV,3,2,12,11,29,194,,12,68,126,,16,38,317,,23,03,110,,2*70

2025-04-01 10:47:34 - $GAGSV,3,3,12,24,60,344,,25,16,305,,31,47,085,,33,32,045,,2*7C

2025-04-01 10:47:34 - $GBGSV,4,1,13,01,45,141,,02,34,234,,03,50,200,,04,34,124,,1*75

2025-04-01 10:47:34 - $GBGSV,4,2,13,05,14,254,,06,62,213,33,07,64,303,41,09,67,250,38,1*77

2025-04-01 10:47:34 - $GBGSV,4,3,13,10,53,287,46,16,56,196,29,26,19,317,44,29,77,003,30,1*78

2025-04-01 10:47:34 - $GBGSV,4,4,13,30,25,044,23,1*41

2025-04-01 10:47:34 - $GBGSV,4,1,13,01,45,141,,02,34,234,,03,50,200,,04,34,124,,3*77

2025-04-01 10:47:34 - $GBGSV,4,2,13,05,14,254,,06,62,213,,07,64,303,,09,67,250,,3*7B

2025-04-01 10:47:34 - $GBGSV,4,3,13,10,53,287,,16,56,196,,26,19,317,,29,77,003,,3*70

2025-04-01 10:47:34 - $GBGSV,4,4,13,30,25,044,,3*42

2025-04-01 10:47:34 - $GNGLL,3101.4440943,N,12127.4611269,E,024733.00,A,A*77

2025-04-01 10:49:40 - $GNRMC,024734.00,A,3101.4440862,N,12127.4611655,E,0.042,,010425,,,A,V*1E

2025-04-01 10:49:40 - $GNVTG,,T,,M,0.042,N,0.077,K,A*3B

2025-04-01 10:49:40 - $GNGGA,024734.00,3101.4440862,N,12127.4611655,E,1,12,1.27,115.988,M,9.898,M,,*77

2025-04-01 10:49:40 - $GNGSA,A,3,17,27,14,02,30,01,08,,,,,,1.97,1.27,1.51,1*01

2025-04-01 10:49:40 - $GNGSA,A,3,85,87,86,76,77,,,,,,,,1.97,1.27,1.51,2*01

2025-04-01 10:49:40 - $GNGSA,A,3,25,33,10,05,31,16,24,,,,,,1.97,1.27,1.51,3*0D

2025-04-01 10:49:40 - $GNGSA,A,3,30,07,09,10,26,29,06,16,,,,,1.97,1.27,1.51,4*08

2025-04-01 10:49:40 - $GPGSV,4,1,13,01,59,169,28,02,73,081,25,03,04,159,,07,62,253,26,1*6B

2025-04-01 10:49:40 - $GPGSV,4,2,13,08,48,036,23,09,02,215,31,10,06,052,,14,17,308,45,1*66

2025-04-01 10:49:40 - $GPGSV,4,3,13,16,10,108,32,17,15,257,40,22,01,301,23,27,16,057,26,1*6F

2025-04-01 10:49:40 - $GPGSV,4,4,13,30,39,302,52,1*59

2025-04-01 10:49:40 - $GPGSV,4,1,13,01,59,169,,02,73,081,,03,04,159,,07,62,253,,6*65

2025-04-01 10:49:40 - $GPGSV,4,2,13,08,48,036,,09,02,215,,10,06,052,,14,17,308,,6*63

2025-04-01 10:49:40 - $GPGSV,4,3,13,16,10,108,,17,15,257,,22,01,301,,27,16,057,,6*68

2025-04-01 10:49:40 - $GPGSV,4,4,13,30,39,302,,6*59

2025-04-01 10:49:40 - $GLGSV,2,1,07,74,01,136,30,75,48,120,32,76,59,350,41,77,16,327,50,1*7F

2025-04-01 10:49:40 - $GLGSV,2,2,07,85,28,028,19,86,84,318,32,87,40,220,31,1*4A

2025-04-01 10:49:40 - $GLGSV,2,1,07,74,01,136,,75,48,120,,76,59,350,,77,16,327,,3*7F

2025-04-01 10:49:40 - $GLGSV,2,2,07,85,28,028,,86,84,318,,87,40,220,,3*43

2025-04-01 10:49:40 - $GAGSV,3,1,12,03,04,305,33,05,14,258,41,09,07,209,31,10,54,175,26,7*79

2025-04-01 10:49:40 - $GAGSV,3,2,12,11,29,194,,12,68,126,,16,38,317,38,23,03,110,10,7*7F

2025-04-01 10:49:40 - $GAGSV,3,3,12,24,60,344,37,25,16,305,44,31,47,085,16,33,32,045,18,7*73

2025-04-01 10:49:40 - $GAGSV,3,1,12,03,04,305,,05,14,258,,09,07,209,,10,54,175,,2*7F

2025-04-01 10:49:40 - $GAGSV,3,2,12,11,29,194,,12,68,126,,16,38,317,,23,03,110,,2*70

2025-04-01 10:49:40 - $GAGSV,3,3,12,24,60,344,,25,16,305,,31,47,085,,33,32,045,,2*7C

2025-04-01 10:49:40 - $GBGSV,4,1,13,01,45,141,,02,34,234,,03,50,200,,04,34,124,,1*75

2025-04-01 10:49:40 - $GBGSV,4,2,13,05,14,254,,06,62,213,33,07,64,303,41,09,67,250,38,1*77

2025-04-01 10:49:40 - $GBGSV,4,3,13,10,53,287,46,16,56,196,29,26,19,317,44,29,77,003,30,1*78

2025-04-01 10:49:40 - $GBGSV,4,4,13,30,25,044,23,1*41

2025-04-01 10:49:40 - $GBGSV,4,1,13,01,45,141,,02,34,234,,03,50,200,,04,34,124,,3*77

2025-04-01 10:49:40 - $GBGSV,4,2,13,05,14,254,,06,62,213,,07,64,303,,09,67,250,,3*7B

2025-04-01 10:49:40 - $GBGSV,4,3,13,10,53,287,,16,56,196,,26,19,317,,29,77,003,,3*70

2025-04-01 10:49:42 - $GBGSV,4,4,13,30,25,044,,3*42

2025-04-01 10:49:42 - $GNGLL,3101.4440862,N,12127.4611655,E,024734.00,A,A*79

2025-04-01 10:49:42 - $GNRMC,024735.00,A,3101.4440471,N,12127.4612461,E,0.013,,010425,,,A,V*13

2025-04-01 10:49:42 - $GNVTG,,T,,M,0.013,N,0.025,K,A*38

2025-04-01 10:49:42 - $GNGGA,024735.00,3101.4440471,N,12127.4612461,E,1,12,0.81,115.870,M,9.898,M,,*75

2025-04-01 10:49:42 - $GNGSA,A,3,17,27,14,02,30,01,08,,,,,,1.24,0.81,0.94,1*0C

2025-04-01 10:49:42 - $GNGSA,A,3,85,87,86,76,77,,,,,,,,1.24,0.81,0.94,2*0C

2025-04-01 10:49:42 - $GNGSA,A,3,25,33,10,05,31,16,24,,,,,,1.24,0.81,0.94,3*00

2025-04-01 10:49:42 - $GNGSA,A,3,30,07,09,10,26,29,06,16,,,,,1.24,0.81,0.94,4*05

2025-04-01 10:49:42 - $GPGSV,4,1,13,01,59,169,28,02,73,081,24,03,04,159,,07,62,253,,1*6E

2025-04-01 10:49:42 - $GPGSV,4,2,13,08,48,036,27,09,02,215,30,10,06,052,,14,17,308,45,1*63

2025-04-01 10:49:42 - $GPGSV,4,3,13,16,10,108,32,17,15,257,38,22,01,301,24,27,16,057,25,1*64

2025-04-01 10:49:42 - $GPGSV,4,4,13,30,40,301,52,1*54

2025-04-01 10:49:42 - $GPGSV,4,1,13,01,59,169,,02,73,081,,03,04,159,,07,62,253,,6*65

2025-04-01 10:49:42 - $GPGSV,4,2,13,08,48,036,,09,02,215,,10,06,052,,14,17,308,,6*63

2025-04-01 10:49:42 - $GPGSV,4,3,13,16,10,108,,17,15,257,,22,01,301,,27,16,057,,6*68

2025-04-01 10:49:42 - $GPGSV,4,4,13,30,40,301,,6*54

2025-04-01 10:49:42 - $GLGSV,2,1,07,74,01,136,31,75,48,120,32,76,59,350,41,77,16,327,50,1*7E

2025-04-01 10:49:42 - $GLGSV,2,2,07,85,28,028,15,86,84,318,33,87,40,220,32,1*44

2025-04-01 10:49:42 - $GLGSV,2,1,07,74,01,136,,75,48,120,,76,59,350,,77,16,327,,3*7F

2025-04-01 10:49:42 - $GLGSV,2,2,07,85,28,028,,86,84,318,,87,40,220,,3*43

2025-04-01 10:49:42 - $GAGSV,3,1,12,03,04,305,33,05,14,258,40,09,07,209,32,10,54,175,25,7*78

2025-04-01 10:49:42 - $GAGSV,3,2,12,11,29,194,,12,68,126,,16,38,317,38,23,03,110,09,7*77

2025-04-01 10:49:42 - $GAGSV,3,3,12,24,60,344,36,25,16,305,44,31,47,085,18,33,32,045,18,7*7C

2025-04-01 10:49:42 - $GAGSV,3,1,12,03,04,305,,05,14,258,,09,07,209,,10,54,175,,2*7F

2025-04-01 10:49:42 - $GAGSV,3,2,12,11,29,194,,12,68,126,,16,38,317,,23,03,110,,2*70

2025-04-01 10:49:42 - $GAGSV,3,3,12,24,60,344,,25,16,305,,31,47,085,,33,32,045,,2*7C

2025-04-01 10:49:42 - $GBGSV,4,1,13,01,45,141,,02,34,234,,03,50,200,,04,34,124,,1*75

2025-04-01 10:49:42 - $GBGSV,4,2,13,05,14,254,,06,62,213,33,07,64,303,42,09,67,250,38,1*74

2025-04-01 10:49:42 - $GBGSV,4,3,13,10,53,287,47,16,56,196,28,26,19,317,45,29,77,003,30,1*79

2025-04-01 10:49:42 - $GBGSV,4,4,13,30,25,044,22,1*40

2025-04-01 10:49:42 - $GBGSV,4,1,13,01,45,141,,02,34,234,,03,50,200,,04,34,124,,3*77

2025-04-01 10:49:42 - $GBGSV,4,2,13,05,14,254,,06,62,213,,07,64,303,,09,67,250,,3*7B

2025-04-01 10:49:42 - $GBGSV,4,3,13,10,53,287,,16,56,196,,26,19,317,,29,77,003,,3*70

2025-04-01 10:49:42 - $GBGSV,4,4,13,30,25,044,,3*42

2025-04-01 10:49:42 - $GNGLL,3101.4440471,N,12127.4612461,E,024735.00,A,A*70

2025-04-01 10:49:42 - $GNRMC,024736.00,A,3101.4439886,N,12127.4613661,E,0.018,,010425,,,A,V*12

2025-04-01 10:49:42 - $GNVTG,,T,,M,0.018,N,0.033,K,A*34

2025-04-01 10:49:42 - $GNGGA,024736.00,3101.4439886,N,12127.4613661,E,1,12,0.82,115.706,M,9.898,M,,*72

2025-04-01 10:49:42 - $GNGSA,A,3,17,27,14,02,30,01,08,,,,,,1.25,0.82,0.94,1*0E

2025-04-01 10:49:42 - $GNGSA,A,3,85,87,86,76,77,,,,,,,,1.25,0.82,0.94,2*0E

2025-04-01 10:49:42 - $GNGSA,A,3,25,33,10,05,31,16,24,,,,,,1.25,0.82,0.94,3*02

2025-04-01 10:49:42 - $GNGSA,A,3,30,07,09,10,26,29,06,16,,,,,1.25,0.82,0.94,4*07

2025-04-01 10:49:42 - $GPGSV,4,1,13,01,59,169,28,02,73,081,23,03,04,159,,07,62,253,,1*69

2025-04-01 10:49:42 - $GPGSV,4,2,13,08,48,036,29,09,02,215,28,10,06,052,,14,17,308,45,1*64

2025-04-01 10:49:42 - $GPGSV,4,3,13,16,10,108,31,17,15,257,39,22,01,301,25,27,16,057,26,1*64

2025-04-01 10:49:42 - $GPGSV,4,4,13,30,40,301,52,1*54

2025-04-01 10:49:42 - $GPGSV,4,1,13,01,59,169,,02,73,081,,03,04,159,,07,62,253,,6*65

2025-04-01 10:49:42 - $GPGSV,4,2,13,08,48,036,,09,02,215,,10,06,052,,14,17,308,,6*63

2025-04-01 10:49:42 - $GPGSV,4,3,13,16,10,108,,17,15,257,,22,01,301,,27,16,057,,6*68

2025-04-01 10:49:42 - $GPGSV,4,4,13,30,40,301,,6*54

2025-04-01 10:49:42 - $GLGSV,2,1,07,74,01,136,30,75,48,120,31,76,59,350,41,77,16,327,51,1*7D

2025-04-01 10:49:42 - $GLGSV,2,2,07,85,28,028,17,86,84,318,34,87,40,220,33,1*40

2025-04-01 10:49:42 - $GLGSV,2,1,07,74,01,136,,75,48,120,,76,59,350,,77,16,327,,3*7F

2025-04-01 10:49:42 - $GLGSV,2,2,07,85,28,028,,86,84,318,,87,40,220,,3*43

2025-04-01 10:49:42 - $GAGSV,3,1,12,03,04,305,32,05,14,258,40,09,07,209,31,10,54,175,25,7*7A

2025-04-01 10:49:42 - $GAGSV,3,2,12,11,29,194,,12,68,126,,16,38,317,38,23,03,110,15,7*7A

2025-04-01 10:49:42 - $GAGSV,3,3,12,24,60,344,36,25,16,305,44,31,47,085,20,33,32,045,19,7*76

2025-04-01 10:49:42 - $GAGSV,3,1,12,03,04,305,,05,14,258,,09,07,209,,10,54,175,,2*7F

2025-04-01 10:49:42 - $GAGSV,3,2,12,11,29,194,,12,68,126,,16,38,317,,23,03,110,,2*70

2025-04-01 10:49:42 - $GAGSV,3,3,12,24,60,344,,25,16,305,,31,47,085,,33,32,045,,2*7C

2025-04-01 10:49:42 - $GBGSV,4,1,13,01,45,141,,02,34,234,,03,50,200,,04,34,124,,1*75

2025-04-01 10:49:42 - $GBGSV,4,2,13,05,14,254,,06,62,213,33,07,64,303,41,09,67,250,38,1*77

2025-04-01 10:49:42 - $GBGSV,4,3,13,10,53,287,47,16,56,196,28,26,19,317,45,29,77,003,30,1*79

2025-04-01 10:49:42 - $GBGSV,4,4,13,30,25,044,21,1*43

2025-04-01 10:49:42 - $GBGSV,4,1,13,01,45,141,,02,34,234,,03,50,200,,04,34,124,,3*77

2025-04-01 10:49:42 - $GBGSV,4,2,13,05,14,254,,06,62,213,,07,64,303,,09,67,250,,3*7B

2025-04-01 10:49:42 - $GBGSV,4,3,13,10,53,287,,16,56,196,,26,19,317,,29,77,003,,3*70

2025-04-01 10:49:42 - $GBGSV,4,13,30,40,300,,6*55

2025-04-01 10:49:42 - $GLGSV,2,1,07,74,00,137,25,75,47,121,38,76,60,351,25,77,16,327,50,1*76

2025-04-01 10:49:42 - $GLGSV,2,2,07,85,27,028,33,86,83,326,31,87,41,221,29,1*4D

2025-04-01 10:49:42 - $GLGSV,2,1,07,74,00,137,,75,47,121,,76,60,351,,77,16,327,,3*7A

2025-04-01 10:49:42 - $GLGSV,2,2,07,85,27,028,,86,83,326,,87,41,221,,3*46

2025-04-01 10:49:42 - $GAGSV,3,1,12,03,04,304,27,05,13,257,36,09,06,208,38,10,56,174,19,7*73

2025-04-01 10:49:42 - $GAGSV,3,2,12,11,31,194,20,12,69,124,,16,38,318,36,23,02,111,11,7*77

2025-04-01 10:49:42 - $GAGSV,3,3,12,24,61,346,41,25,17,306,43,31,47,086,21,33,31,044,13,7*7A

2025-04-01 10:49:42 - $GAGSV,3,1,12,03,04,304,,05,13,257,,09,06,208,,10,56,174,,2*75

2025-04-01 10:49:42 - $GAGSV,3,2,12,11,31,194,,12,69,124,,16,38,318,,23,02,111,,2*75

2025-04-01 10:49:42 - $GAGSV,3,3,12,24,61,346,,25,17,306,,31,47,086,,33,31,044,,2*7C

2025-04-01 10:49:42 - $GBGSV,4,1,13,01,45,141,,02,34,234,,03,50,200,,04,34,124,,1*75

2025-04-01 10:49:42 - $GBGSV,4,2,13,05,14,254,,06,61,213,33,07,64,303,40,09,66,249,33,1*77

2025-04-01 10:49:42 - $GBGSV,4,3,13,10,53,288,47,16,55,196,26,26,19,317,44,29,76,005,28,1*74

2025-04-01 10:49:42 - $GBGSV,4,4,13,30,24,044,22,1*41

2025-04-01 10:49:42 - $GBGSV,4,1,13,01,45,141,,02,34,234,,03,50,200,,04,34,124,,3*77

2025-04-01 10:49:42 - $GBGSV,4,2,13,05,14,254,,06,61,213,,07,64,303,,09,66,249,,3*71

2025-04-01 10:49:42 - $GBGSV,4,3,13,10,53,288,,16,55,196,,26,19,317,,29,76,005,,3*7B

2025-04-01 10:49:42 - $GBGSV,4,4,13,30,24,044,,3*43

2025-04-01 10:49:42 - $GNGLL,3101.4361094,N,12127.4698628,E,024941.00,A,A*7B

2025-04-01 10:49:42 - $GNRMC,024942.00,A,3101.4360739,N,12127.4698170,E,0.024,,010425,,,A,V*14

2025-04-01 10:49:42 - $GNVTG,,T,,M,0.024,N,0.045,K,A*3A

2025-04-01 10:49:42 - $GNGGA,024942.00,3101.4360739,N,12127.4698170,E,1,12,0.79,98.758,M,9.899,M,,*41

2025-04-01 10:49:42 - $GNGSA,A,3,02,01,17,27,14,08,30,07,,,,,1.19,0.79,0.89,1*0E

2025-04-01 10:49:42 - $GNGSA,A,3,85,87,86,76,77,,,,,,,,1.19,0.79,0.89,2*09

2025-04-01 10:49:42 - $GNGSA,A,3,25,33,10,05,31,16,24,,,,,,1.19,0.79,0.89,3*05

2025-04-01 10:49:42 - $GNGSA,A,3,30,07,09,10,26,16,29,06,,,,,1.19,0.79,0.89,4*00

2025-04-01 10:49:42 - $GPGSV,4,1,13,01,60,168,26,02,72,078,30,03,05,159,35,07,61,251,34,1*68

2025-04-01 10:49:42 - $GPGSV,4,2,13,08,48,036,21,09,02,214,34,10,06,051,,14,17,308,42,1*64

2025-04-01 10:49:42 - $GPGSV,4,3,13,16,09,109,35,17,15,257,31,22,02,301,,27,15,058,33,1*6D

2025-04-01 10:49:42 - $GPGSV,4,4,13,30,40,300,47,1*51

2025-04-01 10:49:42 - $GPGSV,4,1,13,01,60,168,,02,72,078,,03,05,159,,07,61,251,,6*69

2025-04-01 10:49:42 - $GPGSV,4,2,13,08,48,036,,09,02,214,,10,06,051,,14,17,308,,6*61

2025-04-01 10:49:42 - $GPGSV,4,3,13,16,09,109,,17,15,257,,22,02,301,,27,15,058,,6*6E

2025-04-01 10:49:42 - $GPGSV,4,4,13,30,40,300,,6*55

2025-04-01 10:49:42 - $GLGSV,2,1,07,74,00,137,25,75,47,121,39,76,60,351,26,77,16,327,50,1*74

2025-04-01 10:49:42 - $GLGSV,2,2,07,85,27,028,34,86,83,326,30,87,41,221,31,1*42

2025-04-01 10:49:42 - $GLGSV,2,1,07,74,00,137,,75,47,121,,76,60,351,,77,16,327,,3*7A

2025-04-01 10:49:42 - $GLGSV,2,2,07,85,27,028,,86,83,326,,87,41,221,,3*46

2025-04-01 10:49:42 - $GAGSV,3,1,12,03,04,304,26,05,13,257,36,09,06,208,38,10,56,174,20,7*78

2025-04-01 10:49:42 - $GAGSV,3,2,12,11,31,194,18,12,69,123,,16,38,318,36,23,02,111,09,7*72

2025-04-01 10:49:42 - $GAGSV,3,3,12,24,61,346,41,25,17,306,43,31,47,086,22,33,31,044,14,7*7E

2025-04-01 10:49:42 - $GAGSV,3,1,12,03,04,304,,05,13,257,,09,06,208,,10,56,174,,2*75

2025-04-01 10:49:42 - $GAGSV,3,2,12,11,31,194,,12,69,123,,16,38,318,,23,02,111,,2*72

2025-04-01 10:49:42 - $GAGSV,3,3,12,24,61,346,,25,17,306,,31,47,086,,33,31,044,,2*7C

2025-04-01 10:49:42 - $GBGSV,4,1,13,01,45,141,,02,34,234,,03,50,200,,04,34,124,,1*75

2025-04-01 10:49:42 - $GBGSV,4,2,13,05,14,254,,06,61,213,32,07,64,303,40,09,66,249,33,1*76

2025-04-01 10:49:42 - $GBGSV,4,3,13,10,53,288,47,16,55,196,26,26,19,317,44,29,76,005,27,1*7B

2025-04-01 10:49:42 - $GBGSV,4,4,13,30,24,044,22,1*41

2025-04-01 10:49:42 - $GBGSV,4,1,13,01,45,141,,02,34,234,,03,50,200,,04,34,124,,3*77

2025-04-01 10:49:42 - $GBGSV,4,2,13,05,14,254,,06,61,213,,07,64,303,,09,66,249,,3*71

2025-04-01 10:49:42 - $GBGSV,4,3,13,10,53,288,,16,55,196,,26,19,317,,29,76,005,,3*7B

2025-04-01 10:49:42 - $GBGSV,4,4,13,30,24,044,,3*43

2025-04-01 10:49:42 - $GNGLL,3101.4360739,N,12127.4698170,E,024942.00,A,A*73

2025-04-01 10:49:42 - $GNRMC,024943.00,A,3101.4360323,N,12127.4698388,E,0.051,,010425,,,A,V*1D

2025-04-01 10:49:42 - $GNVTG,,T,,M,0.051,N,0.094,K,A*34

2025-04-01 10:49:42 - $GNGGA,024943.00,3101.4360323,N,12127.4698388,E,1,12,0.80,98.582,M,9.899,M,,*49

2025-04-01 10:49:42 - $GNGSA,A,3,02,01,17,27,14,08,30,07,,,,,1.20,0.80,0.89,1*02

2025-04-01 10:49:42 - $GNGSA,A,3,85,87,86,76,77,,,,,,,,1.20,0.80,0.89,2*05

2025-04-01 10:49:42 - $GNGSA,A,3,25,33,10,05,31,16,24,,,,,,1.20,0.80,0.89,3*09

2025-04-01 10:49:42 - $GNGSA,A,3,30,07,09,10,26,16,29,06,,,,,1.20,0.80,0.89,4*0C

2025-04-01 10:49:42 - $GPGSV,4,1,13,01,60,168,28,02,72,078,28,03,05,159,34,07,61,251,34,1*6E

2025-04-01 10:49:42 - $GPGSV,4,2,13,08,48,036,22,09,02,214,34,10,06,051,,14,17,308,43,1*66

2025-04-01 10:49:42 - $GPGSV,4,3,13,16,09,109,35,17,15,257,31,22,02,301,,27,15,058,32,1*6C

2025-04-01 10:49:42 - $GPGSV,4,4,13,30,40,300,47,1*51

2025-04-01 10:49:42 - $GPGSV,4,1,13,01,60,168,,02,72,078,,03,05,159,,07,61,251,,6*69

2025-04-01 10:49:42 - $GPGSV,4,2,13,08,48,036,,09,02,214,,10,06,051,,14,17,308,,6*61

2025-04-01 10:49:53 - 76,60,351,31,77,16,327,48,1*77

2025-04-01 10:49:53 - $GLGSV,2,2,07,85,27,028,26,86,83,326,33,87,41,221,35,1*46

2025-04-01 10:49:53 - $GLGSV,2,1,07,74,00,137,,75,47,121,,76,60,351,,77,16,327,,3*7A

2025-04-01 10:49:53 - $GLGSV,2,2,07,85,27,028,,86,83,326,,87,41,221,,3*46

2025-04-01 10:49:53 - $GAGSV,3,1,12,03,04,304,23,05,13,257,37,09,06,208,36,10,56,174,24,7*76

2025-04-01 10:49:53 - $GAGSV,3,2,12,11,31,194,,12,69,123,,16,39,318,38,23,02,111,08,7*75

2025-04-01 10:49:53 - $GAGSV,3,3,12,24,61,346,41,25,17,306,43,31,47,086,23,33,31,044,24,7*7C

2025-04-01 10:49:53 - $GAGSV,3,1,12,03,04,304,,05,13,257,,09,06,208,,10,56,174,,2*75

2025-04-01 10:49:53 - $GAGSV,3,2,12,11,31,194,,12,69,123,,16,39,318,,23,02,111,,2*73

2025-04-01 10:49:53 - $GAGSV,3,3,12,24,61,346,,25,17,306,,31,47,086,,33,31,044,,2*7C

2025-04-01 10:49:53 - $GBGSV,4,1,13,01,45,141,,02,34,234,,03,50,200,,04,34,124,,1*75

2025-04-01 10:49:53 - $GBGSV,4,2,13,05,14,254,,06,61,213,29,07,64,303,40,09,66,249,32,1*7D

2025-04-01 10:49:53 - $GBGSV,4,3,13,10,53,288,47,16,55,196,,26,19,317,47,29,76,005,23,1*78

2025-04-01 10:49:53 - $GBGSV,4,4,13,30,24,044,17,1*47

2025-04-01 10:49:53 - $GBGSV,4,1,13,01,45,141,,02,34,234,,03,50,200,,04,34,124,,3*77

2025-04-01 10:49:53 - $GBGSV,4,2,13,05,14,254,,06,61,213,,07,64,303,,09,66,249,,3*71

2025-04-01 10:49:53 - $GBGSV,4,3,13,10,53,288,,16,55,196,,26,19,317,,29,76,005,,3*7B

2025-04-01 10:49:53 - $GBGSV,4,4,13,30,24,044,,3*43

2025-04-01 10:49:53 - $GNGLL,3101.4357855,N,12127.4699833,E,024949.00,A,A*76

2025-04-01 10:49:53 - $GNRMC,024950.00,A,3101.4357412,N,12127.4699723,E,0.039,,010425,,,A,V*14

2025-04-01 10:49:53 - $GNVTG,,T,,M,0.039,N,0.073,K,A*33

2025-04-01 10:49:53 - $GNGGA,024950.00,3101.4357412,N,12127.4699723,E,1,12,0.81,97.664,M,9.899,M,,*4B

2025-04-01 10:49:53 - $GNGSA,A,3,02,17,27,14,08,30,07,,,,,,1.20,0.81,0.88,1*03

2025-04-01 10:49:53 - $GNGSA,A,3,85,87,86,76,77,,,,,,,,1.20,0.81,0.88,2*05

2025-04-01 10:49:53 - $GNGSA,A,3,25,33,05,31,16,24,,,,,,,1.20,0.81,0.88,3*08

2025-04-01 10:49:53 - $GNGSA,A,3,30,07,09,10,26,29,06,,,,,,1.20,0.81,0.88,4*0B

2025-04-01 10:49:53 - $GPGSV,4,1,13,01,60,168,27,02,72,078,13,03,05,159,35,07,61,251,29,1*64

2025-04-01 10:49:53 - $GPGSV,4,2,13,08,48,036,27,09,02,214,30,10,06,051,26,14,17,308,43,1*63

2025-04-01 10:49:53 - $GPGSV,4,3,13,16,09,109,38,17,15,257,37,22,02,301,25,27,15,058,29,1*6A

2025-04-01 10:49:53 - $GPGSV,4,4,13,30,40,300,44,1*52

2025-04-01 10:49:53 - $GPGSV,4,1,13,01,60,168,,02,72,078,,03,05,159,,07,61,251,,6*69

2025-04-01 10:49:53 - $GPGSV,4,2,13,08,48,036,,09,02,214,,10,06,051,,14,17,308,,6*61

2025-04-01 10:49:53 - $GPGSV,4,3,13,16,09,109,,17,15,257,,22,02,301,,27,15,058,,6*6E

2025-04-01 10:49:53 - $GPGSV,4,4,13,30,40,300,,6*55

2025-04-01 10:49:53 - $GLGSV,2,1,07,74,00,137,26,75,47,121,36,76,60,351,30,77,16,327,47,1*79

2025-04-01 10:49:53 - $GLGSV,2,2,07,85,27,028,25,86,83,326,34,87,41,221,32,1*45

2025-04-01 10:49:53 - $GLGSV,2,1,07,74,00,137,,75,47,121,,76,60,351,,77,16,327,,3*7A

2025-04-01 10:49:53 - $GLGSV,2,2,07,85,27,028,,86,83,326,,87,41,221,,3*46

2025-04-01 10:49:53 - $GAGSV,3,1,12,03,04,304,22,05,13,257,37,09,06,208,36,10,56,174,23,7*70

2025-04-01 10:49:53 - $GAGSV,3,2,12,11,31,194,,12,69,123,,16,39,318,38,23,02,111,13,7*7F

2025-04-01 10:49:53 - $GAGSV,3,3,12,24,61,346,41,25,17,306,43,31,47,086,23,33,31,044,23,7*7B

2025-04-01 10:49:53 - $GAGSV,3,1,12,03,04,304,,05,13,257,,09,06,208,,10,56,174,,2*75

2025-04-01 10:49:53 - $GAGSV,3,2,12,11,31,194,,12,69,123,,16,39,318,,23,02,111,,2*73

2025-04-01 10:49:53 - $GAGSV,3,3,12,24,61,346,,25,17,306,,31,47,086,,33,31,044,,2*7C

2025-04-01 10:49:53 - $GBGSV,4,1,13,01,45,141,,02,34,234,,03,50,200,,04,34,124,,1*75

2025-04-01 10:49:53 - $GBGSV,4,2,13,05,14,254,,06,61,213,29,07,64,303,40,09,66,249,32,1*7D

2025-04-01 10:49:53 - $GBGSV,4,3,13,10,53,288,47,16,55,196,,26,19,317,49,29,76,005,26,1*73

2025-04-01 10:49:53 - $GBGSV,4,4,13,30,24,044,17,1*47

2025-04-01 10:49:53 - $GBGSV,4,1,13,01,45,141,,02,34,234,,03,50,200,,04,34,124,,3*77

2025-04-01 10:49:53 - $GBGSV,4,2,13,05,14,254,,06,61,213,,07,64,303,,09,66,249,,3*71

2025-04-01 10:49:53 - $GBGSV,4,3,13,10,53,288,,16,55,196,,26,19,317,,29,76,005,,3*7B

2025-04-01 10:49:53 - $GBGSV,4,4,13,30,24,044,,3*43

2025-04-01 10:49:53 - $GNGLL,3101.4357412,N,12127.4699723,E,024950.00,A,A*7F

2025-04-01 10:49:53 - $GNRMC,024951.00,A,3101.4357061,N,12127.4700238,E,0.010,,010425,,,A,V*10

2025-04-01 10:49:53 - $GNVTG,,T,,M,0.010,N,0.019,K,A*34

2025-04-01 10:49:53 - $GNGGA,024951.00,3101.4357061,N,12127.4700238,E,1,12,0.82,97.524,M,9.899,M,,*40

2025-04-01 10:49:53 - $GNGSA,A,3,02,01,17,27,14,08,30,07,,,,,1.23,0.82,0.91,1*0A

2025-04-01 10:49:53 - $GNGSA,A,3,85,87,86,76,77,,,,,,,,1.23,0.82,0.91,2*0D

2025-04-01 10:49:53 - $GNGSA,A,3,25,33,05,31,16,24,,,,,,,1.23,0.82,0.91,3*00

2025-04-01 10:49:53 - $GNGSA,A,3,30,07,09,10,26,29,06,,,,,,1.23,0.82,0.91,4*03

2025-04-01 10:49:53 - $GPGSV,4,1,13,01,60,168,26,02,72,078,14,03,05,159,36,07,61,251,29,1*61

2025-04-01 10:49:53 - $GPGSV,4,2,13,08,48,036,27,09,02,214,28,10,06,051,27,14,17,308,43,1*6B

2025-04-01 10:49:53 - $GPGSV,4,3,13,16,09,109,38,17,15,257,37,22,02,301,29,27,15,058,28,1*67

2025-04-01 10:49:53 - $GPGSV,4,4,13,30,40,300,44,1*52

2025-04-01 10:49:53 - $GPGSV,4,1,13,01,60,168,,02,72,078,,03,05,159,,07,61,251,,6*69

2025-04-01 10:49:53 - $GPGSV,4,2,13,08,48,036,,09,02,214,,10,06,051,,14,17,308,,6*61

2025-04-01 10:49:53 - $GPGSV,4,3,13,16,09,109,,17,15,257,,22,02,301,,27,15,058,,6*6E

2025-04-01 10:49:53 - $GPGSV,4,4,13,30,40,300,,6*55

2025-04-01 10:49:53 - $GLGSV,2,1,07,74,00,13$GNRMC,024952.00,A,3101.4356837,N,12127.4700528,E,0.042,,010425,,,A,V*18

2025-04-01 10:49:53 - $GNVTG,,T,,M,0.042,N,0.077,K,A*3B

2025-04-01 10:49:53 - $GNGGA,024952.00,3101.4356837,N,12127.4700528,E,1,12,0.82,97.419,M,9.899,M,,*40

2025-04-01 10:49:53 - $GNGSA,A,3,02,01,17,27,14,08,30,07,,,,,1.25,0.82,0.94,1*09

2025-04-01 10:49:53 - $GNGSA,A,3,85,87,86,76,77,,,,,,,,1.25,0.82,0.94,2*0E

2025-04-01 10:49:53 - $GNGSA,A,3,25,33,10,05,31,16,24,,,,,,1.25,0.82,0.94,3*02

2025-04-01 10:49:53 - $GNGSA,A,3,30,07,09,10,26,29,06,,,,,,1.25,0.82,0.94,4*00

2025-04-01 10:49:53 - $GPGSV,4,1,13,01,60,168,25,02,72,078,17,03,05,159,35,07,61,251,29,1*62

2025-04-01 10:49:53 - $GPGSV,4,2,13,08,48,036,27,09,02,214,27,10,06,051,29,14,17,308,42,1*6B

2025-04-01 10:49:53 - $GPGSV,4,3,13,16,09,109,38,17,15,257,37,22,02,301,31,27,15,058,28,1*6E

2025-04-01 10:49:53 - $GPGSV,4,4,13,30,40,300,43,1*55

2025-04-01 10:49:53 - $GPGSV,4,1,13,01,60,168,,02,72,078,,03,05,159,,07,61,251,,6*69

2025-04-01 10:49:53 - $GPGSV,4,2,13,08,48,036,,09,02,214,,10,06,051,,14,17,308,,6*61

2025-04-01 10:49:53 - $GPGSV,4,3,13,16,09,109,,17,15,257,,22,02,301,,27,15,058,,6*6E

2025-04-01 10:49:53 - $GPGSV,4,4,13,30,40,300,,6*55

2025-04-01 10:49:53 - $GLGSV,2,1,07,74,00,137,22,75,47,121,34,76,60,351,28,77,16,327,47,1*76

2025-04-01 10:49:53 - $GLGSV,2,2,07,85,27,028,25,86,83,326,34,87,41,221,28,1*4E

2025-04-01 10:49:53 - $GLGSV,2,1,07,74,00,137,,75,47,121,,76,60,351,,77,16,327,,3*7A

2025-04-01 10:49:53 - $GLGSV,2,2,07,85,27,028,,86,83,326,,87,41,221,,3*46

2025-04-01 10:49:53 - $GAGSV,3,1,12,03,04,304,20,05,13,257,37,09,06,208,36,10,56,174,19,7*7B

2025-04-01 10:49:53 - $GAGSV,3,2,12,11,31,194,24,12,69,123,22,16,39,318,38,23,02,111,10,7*7A

2025-04-01 10:49:53 - $GAGSV,3,3,12,24,61,346,41,25,17,306,43,31,47,086,21,33,31,044,20,7*7A

2025-04-01 10:49:53 - $GAGSV,3,1,12,03,04,304,,05,13,257,,09,06,208,,10,56,174,,2*75

2025-04-01 10:49:53 - $GAGSV,3,2,12,11,31,194,,12,69,123,,16,39,318,,23,02,111,,2*73

2025-04-01 10:49:53 - $GAGSV,3,3,12,24,61,346,,25,17,306,,31,47,086,,33,31,044,,2*7C

2025-04-01 10:49:53 - $GBGSV,4,1,13,01,45,141,,02,34,234,,03,50,200,,04,34,124,,1*75

2025-04-01 10:49:53 - $GBGSV,4,2,13,05,14,254,,06,61,213,28,07,64,303,40,09,66,249,31,1*7F

2025-04-01 10:49:53 - $GBGSV,4,3,13,10,53,288,47,16,55,196,,26,19,317,50,29,76,005,28,1*75

2025-04-01 10:49:53 - $GBGSV,4,4,13,30,24,044,16,1*46

2025-04-01 10:49:53 - $GBGSV,4,1,13,01,45,141,,02,34,234,,03,50,200,,04,34,124,,3*77

2025-04-01 10:49:53 - $GBGSV,4,2,13,05,14,254,,06,61,213,,07,64,303,,09,66,249,,3*71

2025-04-01 10:49:53 - $GBGSV,4,3,13,10,53,288,,16,55,196,,26,19,317,,29,76,005,,3*7B

2025-04-01 10:49:53 - $GBGSV,4,4,13,30,24,044,,3*43

2025-04-01 10:49:53 - $GNGLL,3101.4356837,N,12127.4700528,E,024952.00,A,A*7F

2025-04-01 10:49:53 - $GNRMC,024953.00,A,3101.4356453,N,12127.4700608,E,0.053,,010425,,,A,V*16

2025-04-01 10:49:53 - $GNVTG,,T,,M,0.053,N,0.098,K,A*3A

2025-04-01 10:49:53 - $GNGGA,024953.00,3101.4356453,N,12127.4700608,E,1,12,0.81,97.261,M,9.899,M,,*44

2025-04-01 10:49:53 - $GNGSA,A,3,02,01,17,27,14,08,30,07,,,,,1.20,0.81,0.88,1*02

2025-04-01 10:49:53 - $GNGSA,A,3,85,87,86,76,77,,,,,,,,1.20,0.81,0.88,2*05

2025-04-01 10:49:53 - $GNGSA,A,3,25,33,10,05,31,16,24,,,,,,1.20,0.81,0.88,3*09

2025-04-01 10:49:53 - $GNGSA,A,3,30,07,09,10,26,29,06,,,,,,1.20,0.81,0.88,4*0B

2025-04-01 10:49:53 - $GPGSV,4,1,13,01,60,168,22,02,72,078,19,03,05,159,34,07,61,251,29,1*6A

2025-04-01 10:49:53 - $GPGSV,4,2,13,08,48,036,27,09,02,214,27,10,06,051,32,14,17,308,42,1*61

2025-04-01 10:49:53 - $GPGSV,4,3,13,16,09,109,37,17,15,257,38,22,02,301,31,27,15,058,27,1*61

2025-04-01 10:49:53 - $GPGSV,4,4,13,30,40,300,43,1*55

2025-04-01 10:49:53 - $GPGSV,4,1,13,01,60,168,,02,72,078,,03,05,159,,07,61,251,,6*69

2025-04-01 10:49:53 - $GPGSV,4,2,13,08,48,036,,09,02,214,,10,06,051,,14,17,308,,6*61

2025-04-01 10:49:53 - $GPGSV,4,3,13,16,09,109,,17,15,257,,22,02,301,,27,15,058,,6*6E

2025-04-01 10:49:53 - $GPGSV,4,4,13,30,40,300,,6*55

2025-04-01 10:49:53 - $GLGSV,2,1,07,74,00,137,22,75,47,121,31,76,60,351,34,77,16,327,47,1*7E

2025-04-01 10:49:53 - $GLGSV,2,2,07,85,27,028,25,86,83,326,34,87,41,221,27,1*41

2025-04-01 10:49:53 - $GLGSV,2,1,07,74,00,137,,75,47,121,,76,60,351,,77,16,327,,3*7A

2025-04-01 10:49:53 - $GLGSV,2,2,07,85,27,028,,86,83,326,,87,41,221,,3*46

2025-04-01 10:49:53 - $GAGSV,3,1,12,03,04,304,18,05,13,257,37,09,06,208,36,10,56,174,17,7*7E

2025-04-01 10:49:53 - $GAGSV,3,2,12,11,31,194,23,12,69,123,20,16,39,318,38,23,02,111,10,7*7F

2025-04-01 10:49:53 - $GAGSV,3,3,12,24,61,346,41,25,17,306,43,31,47,086,21,33,31,044,18,7*71

2025-04-01 10:49:53 - $GAGSV,3,1,12,03,04,304,,05,13,257,,09,06,208,,10,56,174,,2*75

2025-04-01 10:49:53 - $GAGSV,3,2,12,11,31,194,,12,69,123,,16,39,318,,23,02,111,,2*73

2025-04-01 10:49:53 - $GAGSV,3,3,12,24,61,346,,25,17,306,,31,47,086,,33,31,044,,2*7C

2025-04-01 10:49:53 - $GBGSV,4,1,13,01,45,141,,02,34,234,,03,50,200,,04,34,124,,1*75

2025-04-01 10:49:53 - $GBGSV,4,2,13,05,14,254,,06,61,213,28,07,64,303,40,09,66,249,31,1*7F

2025-04-01 10:49:53 - $GBGSV,4,3,13,10,53,288,47,16,55,196,,26,19,317,50,29,76,005,28,1*75

2025-04-01 10:49:53 - $GBGSV,4,4,13,30,24,044,16,1*46

2025-04-01 10:49:53 - $GBGSV,4,1,13,01,45,141,,02,34,234,,03,50,200,,04,34,124,,3*77

2025-04-01 10:49:53 - $GBGSV,4,2,13,05,14,254,,06,61,213,,07,64,303,,09,66,249,,3*71

2025-04-01 10:49:53 - $GBGSV,4,3,13,10,53,288,,16,55,196,,26,19,317,,29,76,005,,3*7B

2025-04-01 10:49:53 - $GBGSV,4,4,13,30,24,044,,3*43

2025-04-01 10:49:57 - $GNGLL,3101.4356453,N,12127.4700608,E,024953.00,A,A*71

2025-04-01 10:49:57 - $GNRMC,024954.00,A,3101.4356010,N,12127.4700396,E,0.008,,010425,,,A,V*1E

2025-04-01 10:49:57 - $GNVTG,,T,,M,0.008,N,0.015,K,A*31

2025-04-01 10:49:57 - $GNGGA,024954.00,3101.4356010,N,12127.4700396,E,1,12,0.81,97.132,M,9.899,M,,*47

2025-04-01 10:49:57 - $GNGSA,A,3,02,17,27,14,08,30,07,,,,,,1.22,0.81,0.91,1*09

2025-04-01 10:49:57 - $GNGSA,A,3,85,87,86,76,77,,,,,,,,1.22,0.81,0.91,2*0F

2025-04-01 10:49:57 - $GNGSA,A,3,25,33,10,05,31,16,24,,,,,,1.22,0.81,0.91,3*03

2025-04-01 10:49:57 - $GNGSA,A,3,30,07,09,10,26,29,06,,,,,,1.22,0.81,0.91,4*01

2025-04-01 10:49:57 - $GPGSV,4,1,13,01,60,168,,02,72,078,22,03,05,159,35,07,61,251,29,1*63

2025-04-01 10:49:57 - $GPGSV,4,2,13,08,48,036,28,09,02,214,28,10,06,051,33,14,17,308,42,1*60

2025-04-01 10:49:57 - $GPGSV,4,3,13,16,09,109,37,17,15,257,38,22,02,301,31,27,15,058,27,1*61

2025-04-01 10:49:57 - $GPGSV,4,4,13,30,40,300,42,1*54

2025-04-01 10:49:57 - $GPGSV,4,1,13,01,60,168,,02,72,078,,03,05,159,,07,61,251,,6*69

2025-04-01 10:49:57 - $GPGSV,4,2,13,08,48,036,,09,02,214,,10,06,051,,14,17,308,,6*61

2025-04-01 10:49:57 - $GPGSV,4,3,13,16,09,109,,17,15,257,,22,02,301,,27,15,058,,6*6E

2025-04-01 10:49:57 - $GPGSV,4,4,13,30,40,300,,6*55

2025-04-01 10:49:57 - $GLGSV,2,1,07,74,00,137,25,75,47,121,30,76,60,351,35,77,16,327,46,1*78

2025-04-01 10:49:57 - $GLGSV,2,2,07,85,27,028,26,86,83,326,34,87,41,221,28,1*4D

2025-04-01 10:49:57 - $GLGSV,2,1,07,74,00,137,,75,47,121,,76,60,351,,77,16,327,,3*7A

2025-04-01 10:49:57 - $GLGSV,2,2,07,85,27,028,,86,83,326,,87,41,221,,3*46

2025-04-01 10:49:57 - $GAGSV,3,1,12,03,04,304,15,05,13,257,37,09,06,208,35,10,56,174,19,7*7E

2025-04-01 10:49:57 - $GAGSV,3,2,12,11,31,194,24,12,69,123,17,16,39,318,38,23,02,111,09,7*74

2025-04-01 10:49:57 - $GAGSV,3,3,12,24,61,346,41,25,17,306,44,31,47,086,19,33,31,044,17,7*72

2025-04-01 10:49:57 - $GAGSV,3,1,12,03,04,304,,05,13,257,,09,06,208,,10,56,174,,2*75

2025-04-01 10:49:57 - $GAGSV,3,2,12,11,31,194,,12,69,123,,16,39,318,,23,02,111,,2*73

2025-04-01 10:49:57 - $GAGSV,3,3,12,24,61,346,,25,17,306,,31,47,086,,33,31,044,,2*7C

2025-04-01 10:49:57 - $GBGSV,4,1,13,01,45,141,,02,34,234,,03,50,200,,04,34,124,,1*75

2025-04-01 10:49:57 - $GBGSV,4,2,13,05,14,254,,06,61,213,28,07,64,303,40,09,66,249,31,1*7F

2025-04-01 10:49:57 - $GBGSV,4,3,13,10,53,288,47,16,55,196,,26,19,317,50,29,76,005,29,1*74

2025-04-01 10:49:57 - $GBGSV,4,4,13,30,24,044,17,1*47

2025-04-01 10:49:57 - $GBGSV,4,1,13,01,45,141,,02,34,234,,03,50,200,,04,34,124,,3*77

2025-04-01 10:49:57 - $GBGSV,4,2,13,05,14,254,,06,61,213,,07,64,303,,09,66,249,,3*71

2025-04-01 10:49:57 - $GBGSV,4,3,13,10,53,288,,16,55,196,,26,19,317,,29,76,005,,3*7B

2025-04-01 10:49:57 - $GBGSV,4,4,13,30,24,044,,3*43

2025-04-01 10:49:57 - $GNGLL,3101.4356010,N,12127.4700396,E,024954.00,A,A*77

2025-04-01 10:49:57 - $GNRMC,024955.00,A,3101.4355481,N,12127.4699846,E,0.017,,010425,,,A,V*19

2025-04-01 10:49:57 - $GNVTG,,T,,M,0.017,N,0.031,K,A*39

2025-04-01 10:49:57 - $GNGGA,024955.00,3101.4355481,N,12127.4699846,E,1,12,0.79,96.998,M,9.899,M,,*40

2025-04-01 10:49:57 - $GNGSA,A,3,02,17,27,14,08,30,07,,,,,,1.17,0.79,0.87,1*0F

2025-04-01 10:49:57 - $GNGSA,A,3,85,87,86,76,77,,,,,,,,1.17,0.79,0.87,2*09

2025-04-01 10:49:57 - $GNGSA,A,3,25,33,10,05,31,16,24,,,,,,1.17,0.79,0.87,3*05

2025-04-01 10:49:57 - $GNGSA,A,3,30,07,09,10,26,29,06,,,,,,1.17,0.79,0.87,4*07

2025-04-01 10:49:57 - $GPGSV,4,1,13,01,60,168,26,02,72,078,26,03,05,159,35,07,61,251,28,1*62

2025-04-01 10:49:57 - $GPGSV,4,2,13,08,48,036,29,09,02,214,28,10,06,051,33,14,17,308,42,1*61

2025-04-01 10:49:57 - $GPGSV,4,3,13,16,09,109,37,17,15,257,39,22,02,301,29,27,15,058,27,1*69

2025-04-01 10:49:57 - $GPGSV,4,4,13,30,40,300,43,1*55

2025-04-01 10:49:57 - $GPGSV,4,1,13,01,60,168,,02,72,078,,03,05,159,,07,61,251,,6*69

2025-04-01 10:49:57 - $GPGSV,4,2,13,08,48,036,,09,02,214,,10,06,051,,14,17,308,,6*61

2025-04-01 10:49:57 - $GPGSV,4,3,13,16,09,109,,17,15,257,,22,02,301,,27,15,058,,6*6E

2025-04-01 10:49:57 - $GPGSV,4,4,13,30,40,300,,6*55

2025-04-01 10:49:57 - $GLGSV,2,1,07,74,00,137,26,75,47,121,29,76,60,351,37,77,16,327,46,1*71

2025-04-01 10:49:57 - $GLGSV,2,2,07,85,27,028,26,86,83,326,32,87,41,221,32,1*40

2025-04-01 10:49:57 - $GLGSV,2,1,07,74,00,137,,75,47,121,,76,60,351,,77,16,327,,3*7A

2025-04-01 10:49:57 - $GLGSV,2,2,07,85,27,028,,86,83,326,,87,41,221,,3*46

2025-04-01 10:49:57 - $GAGSV,3,1,12,03,04,304,18,05,13,257,37,09,06,208,35,10,56,174,22,7*7B

2025-04-01 10:49:57 - $GAGSV,3,2,12,11,31,194,23,12,69,123,12,16,39,318,38,23,02,111,09,7*76

2025-04-01 10:49:57 - $GAGSV,3,3,12,24,61,346,41,25,17,306,44,31,46,087,18,33,31,044,16,7*72

2025-04-01 10:49:57 - $GAGSV,3,1,12,03,04,304,,05,13,257,,09,06,208,,10,56,174,,2*75

2025-04-01 10:49:57 - $GAGSV,3,2,12,11,31,194,,12,69,123,,16,39,318,,23,02,111,,2*73

2025-04-01 10:49:57 - $GAGSV,3,3,12,24,61,346,,25,17,306,,31,46,087,,33,31,044,,2*7C

2025-04-01 10:49:57 - $GBGSV,4,1,13,01,45,141,,02,34,234,,03,50,200,,04,34,124,,1*75

2025-04-01 10:49:57 - $GBGSV,4,2,13,05,14,254,,06,61,213,28,07,64,303,40,09,66,249,31,1*7F

2025-04-01 10:49:57 - $GBGSV,4,3,13,10,53,288,47,16,55,196,,26,19,317,50,29,76,005,29,1*74

2025-04-01 10:49:57 - $GBGSV,4,4,13,30,24,044,16,1*46

2025-04-01 10:49:57 - $GBGSV,4,1,13,01,45,141,,02,34,234,,03,50,200,,04,34,124,,3*77

2025-04-01 10:49:57 - $GBGSV,4,2,13,05,14,254,,06,61,213,,07,64,303,,09,66,249,,3*71

2025-04-01 10:49:57 - $GBGSV,4,3,13,10,53,288,,16,55,196,,26,19,317,,29,76,005,,3*7B

2025-04-01 10:49:57 - $GBGSV,4,4,13,30,24,044,,3*43

2025-04-01 10:49:57 - $GNGLL,3101.4355481,N,12127.4699846,E,024955.00,A,A*7E

2025-04-01 10:49:57 - $GNRMC,024956.00,A,3101.4354977,N,12127.4699850,E,0.022,,010425,,,A,V*1E

2025-04-01 10:49:57 - $GNVTG,,T,,M,0.022,N,0.040,K,A*39

2025-04-01 10:49:57 - $GNGGA,024956.00,3101.4354977,N,12127.4699850,E,1,12,0.81,96.876,M,9.899,M,,*47

2025-04-01 10:49:57 - $GNGSA,A,3,02,01,17,27,14,08,30,07,,,,,1.22,0.81,0.91,1*08

2025-04-01 10:49:57 - $GNGSA,A,3,85,87,86,76,77,,,,,,,,1.22,0.81,0.91,2*0F

2025-04-01 10:49:57 - $GNGSA,A,3,25,33,10,05,31,16,24,,,,,,1.22,0.81,0.91,3*03

2025-04-01 10:49:57 - $GNGSA,A,3,30,07,09,10,26,29,06,,,,,,1.22,0.81,0.91,4*01

2025-04-01 10:49:57 - $GPGSV,4,1,13,01,60,168,27,02,72,078,28,03,05,159,36,07,61,251,27,1*61

2025-04-01 10:49:57 - $GPGSV,4,2,13,08,48,036,28,09,02,214,29,10,06,051,32,14,17,308,42,1*60

2025-04-01 10:49:57 - $GPGSV,4,3,13,16,09,109,37,17,15,257,39,22,02,301,07,27,15,058,27,1*65

2025-04-01 10:49:57 - $GPGSV,4,4,13,30,40,300,43,1*55

2025-04-01 10:49:57 - $GPGSV,4,1,13,01,60,168,,02,72,078,,03,05,159,,07,61,251,,6*69

2025-04-01 10:49:57 - $GPGSV,4,2,13,08,48,036,,09,02,214,,10,06,051,,14,17,308,,6*61

2025-04-01 10:49:57 - $GPGSV,4,3,13,16,09,109,,17,15,257,,22,02,301,,27,15,058,,6*6E

2025-04-01 10:49:57 - $GPGSV,4,4,13,30,40,300,,6*55

2025-04-01 10:49:57 - $GLGSV,2,1,07,74,00,137,25,75,47,121,29,76,60,351,37,77,16,327,46,1*72

2025-04-01 10:49:57 - $GLGSV,2,2,07,85,27,028,26,86,83,326,25,87,41,221,32,1*46

2025-04-01 10:49:57 - $GLGSV,2,1,07,74,00,137,,75,47,121,,76,60,351,,77,16,327,,3*7A

2025-04-01 10:49:57 - $GLGSV,2,2,07,85,27,028,,86,83,326,,87,41,221,,3*46

2025-04-01 10:49:57 - $GAGSV,3,1,12,03,04,304,20,05,13,257,37,09,06,208,35,10,56,174,23,7*71

2025-04-01 10:49:57 - $GAGSV,3,2,12,11,31,194,23,12,69,123,,16,39,318,39,23,02,111,10,7*7C

2025-04-01 10:49:57 - $GAGSV,3,3,12,24,61,346,40,25,17,306,44,31,46,087,17,33,31,044,16,7*7C

2025-04-01 10:49:57 - $GAGSV,3,1,12,03,04,304,,05,13,257,,09,06,208,,10,56,174,,2*75

2025-04-01 10:49:57 - $GAGSV,3,2,12,11,31,194,,12,69,123,,16,39,318,,23,02,111,,2*73

2025-04-01 10:49:57 - $GAGSV,3,3,12,24,61,346,,25,17,306,,31,46,087,,33,31,044,,2*7C

2025-04-01 10:49:57 - $GBGSV,4,1,13,01,45,141,,02,34,234,,03,50,200,,04,34,124,,1*75

2025-04-01 10:49:57 - $GBGSV,4,2,13,05,14,254,,06,61,213,28,07,64,303,40,09,66,249,30,1*7E

2025-04-01 10:49:57 - $GBGSV,4,3,13,10,53,288,47,16,55,196,,26,19,317,50,29,76,005,29,1*74

2025-04-01 10:49:57 - $GBGSV,4,4,13,30,24,044,16,1*46

2025-04-01 10:49:57 - $GBGSV,4,1,13,01,45,141,,02,34,234,,03,50,200,,04,34,124,,3*77

2025-04-01 10:49:57 - $GBGSV,4,2,13,05,14,254,,06,61,213,,07,64,303,,09,66,249,,3*71

2025-04-01 10:49:57 - $GBGSV,4,3,13,10,53,288,,16,55,196,,26,19,317,,29,76,005,,3*7B

2025-04-01 10:49:57 - $GBGSV,4,4,13,30,24,044,,3*43

2025-04-01 10:49:57 - $GNGLL,3101.4354977,N,12127.4699850,E,024956.00,A,A*7F

2025-04-01 10:49:57 - $GNRMC,024957.00,A,3101.4354470,N,12127.4700031,E,0.040,,010425,,,A,V*1F

2025-04-01 10:49:57 - $GNVTG,,T,,M,0.040,N,0.075,K,A*3B

2025-04-01 10:49:57 - $GNGGA,024957.00,3101.4354470,N,12127.4700031,E,1,12,0.82,96.727,M,9.899,M,,*4A

2025-04-01 10:49:57 - $GNGSA,A,3,02,01,17,27,14,08,30,07,,,,,1.21,0.82,0.88,1*00

2025-04-01 10:49:57 - $GNGSA,A,3,85,87,86,76,77,,,,,,,,1.21,0.82,0.88,2*07

2025-04-01 10:49:57 - $GNGSA,A,3,25,33,10,05,31,16,24,,,,,,1.21,0.82,0.88,3*0B

2025-04-01 10:49:57 - $GNGSA,A,3,30,07,09,10,26,29,06,,,,,,1.21,0.82,0.88,4*09

2025-04-01 10:49:57 - $GPGSV,4,1,13,01,60,168,28,02,72,078,29,03,05,159,36,07,61,251,27,1*6F

2025-04-01 10:49:57 - $GPGSV,4,2,13,08,48,036,29,09,02,214,30,10,06,051,33,14,17,308,41,1*6B

2025-04-01 10:49:57 - $GPGSV,4,3,13,16,09,109,36,17,15,257,40,22,02,301,13,27,15,058,27,1*6F

2025-04-01 10:49:57 - $GPGSV,4,4,13,30,40,300,43,1*55

2025-04-01 10:49:57 - $GPGSV,4,1,13,01,60,168,,02,72,078,,03,05,159,,07,61,251,,6*69

2025-04-01 10:49:57 - $GPGSV,4,2,13,08,48,036,,09,02,214,,10,06,051,,14,17,308,,6*61

2025-04-01 10:49:57 - $GPGSV,4,3,13,16,09,109,,17,15,257,,22,02,301,,27,15,058,,6*6E

2025-04-01 10:49:57 - $GPGSV,4,4,13,30,40,300,,6*55

2025-04-01 10:49:57 - $GLGSV,2,1,07,74,00,137,25,75,47,121,31,76,60,351,38,77,16,327,46,1*74

2025-04-01 10:49:57 - $GLGSV,2,2,07,85,27,028,28,86,83,326,24,87,41,221,31,1*4A

2025-04-01 10:49:57 - $GLGSV,2,1,07,74,00,137,,75,47,121,,76,60,351,,77,16,327,,3*7A

2025-04-01 10:49:57 - $GLGSV,2,2,07,85,27,028,,86,83,326,,87,41,221,,3*46

2025-04-01 10:49:57 - $GAGSV,3,1,12,03,04,304,22,05,13,257,37,09,06,208,35,10,56,174,24,7*74

2025-04-01 10:49:57 - $GAGSV,3,2,12,11,31,194,23,12,69,123,,16,39,318,39,23,02,111,09,7*74

2025-04-01 10:49:57 - $GAGSV,3,3,12,24,61,346,40,25,17,306,44,31,46,087,16,33,31,044,16,7*7D

2025-04-01 10:49:57 - $GAGSV,3,1,12,03,04,304,,05,13,257,,09,06,208,,10,56,174,,2*75

2025-04-01 10:49:57 - $GAGSV,3,2,12,11,31,194,,12,69,123,,16,39,318,,23,02,111,,2*73

2025-04-01 10:49:57 - $GAGSV,3,3,12,24,61,346,,25,17,306,,31,46,087,,33,31,044,,2*7C

2025-04-01 10:49:57 - $GBGSV,4,1,13,01,45,141,,02,34,234,,03,50,200,,04,34,124,,1*75

2025-04-01 10:49:57 - $GBGSV,4,2,13,05,14,254,,06,61,213,28,07,64,303,40,09,66,249,30,1*7E

2025-04-01 10:49:57 - $GBGSV,4,3,13,10,53,288,47,16,55,196,,26,19,317,50,29,76,005,30,1*7C

2025-04-01 10:49:57 - $GBGSV,4,4,13,30,24,044,19,1*49

2025-04-01 10:49:57 - $GBGSV,4,1,13,01,45,141,,02,34,234,,03,50,200,,04,34,124,,3*77

2025-04-01 10:49:57 - $GBGSV,4,2,13,05,14,254,,06,61,213,,07,64,303,,09,66,249,,3*71

2025-04-01 10:49:57 - $GBGSV,4,3,13,10,53,288,,16,55,196,,26,19,317,,29,76,005,,3*7B

2025-04-01 10:50:01 - $GBGSV,4,4,13,30,24,044,,3*43

2025-04-01 10:50:01 - $GNGLL,3101.4354470,N,12127.4700031,E,024957.00,A,A*7A

2025-04-01 10:50:01 - $GNRMC,024958.00,A,3101.4354489,N,12127.4699483,E,0.027,,010425,,,A,V*1B

2025-04-01 10:50:01 - $GNVTG,,T,,M,0.027,N,0.050,K,A*3D

2025-04-01 10:50:01 - $GNGGA,024958.00,3101.4354489,N,12127.4699483,E,1,12,0.66,96.722,M,9.899,M,,*40

2025-04-01 10:50:01 - $GNGSA,A,3,02,01,17,27,14,08,30,07,,,,,1.00,0.66,0.75,1*0B

2025-04-01 10:50:01 - $GNGSA,A,3,85,87,86,76,77,,,,,,,,1.00,0.66,0.75,2*0C

2025-04-01 10:50:01 - $GNGSA,A,3,25,33,10,05,31,16,24,,,,,,1.00,0.66,0.75,3*00

2025-04-01 10:50:01 - $GNGSA,A,3,30,07,09,10,26,29,06,,,,,,1.00,0.66,0.75,4*02

2025-04-01 10:50:01 - $GPGSV,4,1,13,01,60,168,28,02,72,078,29,03,05,159,35,07,61,251,27,1*6C

2025-04-01 10:50:01 - $GPGSV,4,2,13,08,48,036,30,09,02,214,32,10,06,051,33,14,17,308,40,1*60

2025-04-01 10:50:01 - $GPGSV,4,3,13,16,09,109,35,17,15,257,40,22,02,301,23,27,15,058,28,1*60

2025-04-01 10:50:01 - $GPGSV,4,4,13,30,40,300,44,1*52

2025-04-01 10:50:01 - $GPGSV,4,1,13,01,60,168,,02,72,078,,03,05,159,,07,61,251,,6*69

2025-04-01 10:50:01 - $GPGSV,4,2,13,08,48,036,,09,02,214,,10,06,051,,14,17,308,,6*61

2025-04-01 10:50:01 - $GPGSV,4,3,13,16,09,109,,17,15,257,,22,02,301,,27,15,058,,6*6E

2025-04-01 10:50:01 - $GPGSV,4,4,13,30,40,300,,6*55

2025-04-01 10:50:01 - $GLGSV,2,1,07,74,00,137,27,75,47,121,33,76,60,351,39,77,16,327,46,1*75

2025-04-01 10:50:01 - $GLGSV,2,2,07,85,27,028,29,86,83,326,24,87,41,221,29,1*42

2025-04-01 10:50:01 - $GLGSV,2,1,07,74,00,137,,75,47,121,,76,60,351,,77,16,327,,3*7A

2025-04-01 10:50:01 - $GLGSV,2,2,07,85,27,028,,86,83,326,,87,41,221,,3*46

2025-04-01 10:50:01 - $GAGSV,3,1,12,03,04,304,23,05,13,257,37,09,06,208,35,10,56,174,24,7*75

2025-04-01 10:50:01 - $GAGSV,3,2,12,11,31,194,23,12,69,123,,16,39,318,40,23,02,111,12,7*70

2025-04-01 10:50:01 - $GAGSV,3,3,12,24,61,346,40,25,17,306,44,31,46,087,16,33,31,044,15,7*7E

2025-04-01 10:50:01 - $GAGSV,3,1,12,03,04,304,,05,13,257,,09,06,208,,10,56,174,,2*75

2025-04-01 10:50:01 - $GAGSV,3,2,12,11,31,194,,12,69,123,,16,39,318,,23,02,111,,2*73

2025-04-01 10:50:01 - $GAGSV,3,3,12,24,61,346,,25,17,306,,31,46,087,,33,31,044,,2*7C

2025-04-01 10:50:01 - $GBGSV,4,1,13,01,45,141,,02,34,234,,03,50,200,,04,34,124,,1*75

2025-04-01 10:50:01 - $GBGSV,4,2,13,05,14,254,,06,61,213,28,07,64,303,40,09,66,249,30,1*7E

2025-04-01 10:50:01 - $GBGSV,4,3,13,10,53,288,47,16,55,196,,26,19,317,50,29,76,005,30,1*7C

2025-04-01 10:50:01 - $GBGSV,4,4,13,30,24,044,21,1*42

2025-04-01 10:50:01 - $GBGSV,4,1,13,01,45,141,,02,34,234,,03,50,200,,04,34,124,,3*77

2025-04-01 10:50:01 - $GBGSV,4,2,13,05,14,254,,06,61,213,,07,64,303,,09,66,249,,3*71

2025-04-01 10:50:01 - $GBGSV,4,3,13,10,53,288,,16,55,196,,26,19,317,,29,76,005,,3*7B

2025-04-01 10:50:01 - $GBGSV,4,4,13,30,24,044,,3*43

2025-04-01 10:50:01 - $GNGLL,3101.4354489,N,12127.4699483,E,024958.00,A,A*7F

2025-04-01 10:50:01 - $GNRMC,024959.00,A,3101.4354204,N,12127.4699958,E,0.021,,010425,,,A,V*14

2025-04-01 10:50:01 - $GNVTG,,T,,M,0.021,N,0.039,K,A*34

2025-04-01 10:50:01 - $GNGGA,024959.00,3101.4354204,N,12127.4699958,E,1,12,0.95,96.618,M,9.899,M,,*4D

2025-04-01 10:50:01 - $GNGSA,A,3,02,01,17,27,14,08,30,07,,,,,1.35,0.95,0.96,1*0C

2025-04-01 10:50:01 - $GNGSA,A,3,85,87,86,76,77,,,,,,,,1.35,0.95,0.96,2*0B

2025-04-01 10:50:01 - $GNGSA,A,3,25,33,10,05,31,16,24,,,,,,1.35,0.95,0.96,3*07

2025-04-01 10:50:01 - $GNGSA,A,3,30,07,09,10,26,29,06,,,,,,1.35,0.95,0.96,4*05

2025-04-01 10:50:01 - $GPGSV,4,1,13,01,60,168,29,02,72,078,29,03,05,159,35,07,61,251,28,1*62

2025-04-01 10:50:01 - $GPGSV,4,2,13,08,48,036,30,09,02,214,33,10,06,051,33,14,17,308,40,1*61

2025-04-01 10:50:01 - $GPGSV,4,3,13,16,09,109,35,17,15,257,41,22,02,301,26,27,15,058,28,1*64

2025-04-01 10:50:01 - $GPGSV,4,4,13,30,40,300,45,1*53

2025-04-01 10:50:01 - $GPGSV,4,1,13,01,60,168,,02,72,078,,03,05,159,,07,61,251,,6*69

2025-04-01 10:50:01 - $GPGSV,4,2,13,08,48,036,,09,02,214,,10,06,051,,14,17,308,,6*61

2025-04-01 10:50:01 - $GPGSV,4,3,13,16,09,109,,17,15,257,,22,02,301,,27,15,058,,6*6E

2025-04-01 10:50:01 - $GPGSV,4,4,13,30,40,300,,6*55

2025-04-01 10:50:01 - $GLGSV,2,1,07,74,00,137,27,75,47,121,33,76,60,351,39,77,16,327,47,1*74

